{
  "success": true,
  "count": 8,
  "hotels": [
    {
      "id": 1,
      "name": "Grand Luxe Resort",
      "location": "Paris, France",
      "address": "12 Avenue des Champs-Élysées, 75008 Paris, France",
      "lat": 48.8698,
      "lng": 2.3073,
      "destination": "paris",
      "image": "https://images.unsplash.com/photo-1566073771259-6a8506099945?w=800&q=80",
      "rating": 4.9,
      "reviews": 412,
      "price": 349,
      "stars": 5,
      "amenities": ["pool", "spa", "wifi"]
    },
    {
      "id": 2,
      "name": "Azure Palm Dubai",
      "location": "Dubai, UAE",
      "address": "Sheikh Zayed Road, Downtown Dubai, UAE",
      "lat": 25.1972,
      "lng": 55.2744,
      "destination": "dubai",
      "image": "https://images.unsplash.com/photo-1582719478250-c89cae4dc85b?w=800&q=80",
      "rating": 4.8,
      "reviews": 289,
      "price": 429,
      "stars": 5,
      "amenities": ["pool", "spa", "wifi"]
    },
    {
      "id": 3,
      "name": "Ocean Pearl Maldives",
      "location": "Maldives",
      "address": "North Male Atoll, Maldives",
      "lat": 4.706,
      "lng": 73.3287,
      "destination": "maldives",
      "image": "https://images.unsplash.com/photo-1571003123894-1f0594d2b5d9?w=800&q=80",
      "rating": 4.9,
      "reviews": 156,
      "price": 599,
      "stars": 5,
      "amenities": ["pool", "spa"]
    },
    {
      "id": 4,
      "name": "Tokyo Imperial Tower",
      "location": "Tokyo, Japan",
      "address": "1-1-1 Uchisaiwaicho, Chiyoda City, Tokyo 100-8558, Japan",
      "lat": 35.6745,
      "lng": 139.7595,
      "destination": "tokyo",
      "image": "https://images.unsplash.com/photo-1540959733332-eab4deabeeaf?w=800&q=80",
      "rating": 4.7,
      "reviews": 198,
      "price": 279,
      "stars": 4,
      "amenities": ["wifi", "spa"]
    },
    {
      "id": 5,
      "name": "Manhattan Elite Suites",
      "location": "New York, USA",
      "address": "768 5th Avenue, New York, NY 10019, USA",
      "lat": 40.7648,
      "lng": -73.9748,
      "destination": "new-york",
      "image": "https://images.unsplash.com/photo-1520250497591-112f2f40a3f4?w=800&q=80",
      "rating": 4.6,
      "reviews": 334,
      "price": 389,
      "stars": 5,
      "amenities": ["wifi", "pool"]
    },
    {
      "id": 6,
      "name": "Riviera Palace Nice",
      "location": "Nice, France",
      "address": "15 Promenade des Anglais, 06000 Nice, France",
      "lat": 43.6959,
      "lng": 7.2654,
      "destination": "paris",
      "image": "https://images.unsplash.com/photo-1551882547-ff40c63fe5fa?w=800&q=80",
      "rating": 4.5,
      "reviews": 87,
      "price": 219,
      "stars": 4,
      "amenities": ["pool", "wifi"]
    },
    {
      "id": 7,
      "name": "Sahara Oasis Resort",
      "location": "Marrakech, Morocco",
      "address": "Avenue Mohammed VI, Marrakech 40000, Morocco",
      "lat": 31.6295,
      "lng": -7.9811,
      "destination": "dubai",
      "image": "https://images.unsplash.com/photo-1564501049412-61c2a3083791?w=800&q=80",
      "rating": 4.4,
      "reviews": 112,
      "price": 189,
      "stars": 4,
      "amenities": ["spa", "wifi"]
    },
    {
      "id": 8,
      "name": "Alpine Crown Chalet",
      "location": "Zermatt, Switzerland",
      "address": "Bahnhofstrasse 55, 3920 Zermatt, Switzerland",
      "lat": 46.0207,
      "lng": 7.7491,
      "destination": "paris",
      "image": "https://images.unsplash.com/photo-1578683010236-d716f9a3fdf7?w=800&q=80",
      "rating": 4.8,
      "reviews": 76,
      "price": 459,
      "stars": 5,
      "amenities": ["spa", "wifi"]
    }
  ]
}
